[
    {
      "name": "Citadel of Qaitbay",
      "latitude": 31.214016,
      "longitude": 29.885637
    },
    {
      "name": "Bibliotheca Alexandrina",
      "latitude": 31.208872,
      "longitude": 29.909201
    },
    {
      "name": "Alexandria National Museum",
      "latitude": 31.200956, 
      "longitude": 29.913257
    },
    {
      "name": "Royal Jewelry Museum",
      "latitude": 31.240705,
      "longitude": 29.963301
    },
    {
      "name": "Montaza Palace",
      "latitude": 31.288497,
      "longitude": 30.015970
    },
    {
      "name": "Catacombs of Kom El Shoqafa",
      "latitude": 31.178959,
      "longitude": 29.893080
    },
    {
      "name": "Teatro Eskendria",
      "latitude": 31.19615989999999,
      "longitude": 29.9029271
    },
    {
      "name": "Roman Amphitheater",
      "latitude": 31.1947216,
      "longitude": 29.9041817
    }
  ]
  